<?xml version="1.0" encoding="UTF-8" standalone="yes"?>
<kml xmlns="http://www.opengis.net/kml/2.2" xmlns:gx="http://www.google.com/kml/ext/2.2" xmlns:atom="http://www.w3.org/2005/Atom" xmlns:xal="urn:oasis:names:tc:ciq:xsdschema:xAL:2.0">
    <Document>
        <name>Itinerary</name>
        <Style id="PathStyle">
            <LineStyle>
                <color>ff33ccff</color>
                <width>3.0</width>
            </LineStyle>
        </Style>
        <Placemark>
            <name>BUE</name>
            <open>1</open>
            <Point>
                <coordinates>-58.368731,-34.602535</coordinates>
            </Point>
        </Placemark>
        <Placemark>
            <name>PAR</name>
            <open>1</open>
            <Point>
                <coordinates>2.351074,48.871264</coordinates>
            </Point>
        </Placemark>
        <Placemark>
            <name>PAR</name>
            <open>1</open>
            <Point>
                <coordinates>2.351074,48.871264</coordinates>
            </Point>
        </Placemark>
        <Placemark>
            <name>LON</name>
            <open>1</open>
            <Point>
                <coordinates>-0.126343,51.52797</coordinates>
            </Point>
        </Placemark>
        <Placemark>
            <name>LON</name>
            <open>1</open>
            <Point>
                <coordinates>-0.126343,51.52797</coordinates>
            </Point>
        </Placemark>
        <Placemark>
            <name>MOS</name>
            <open>1</open>
            <Point>
                <coordinates>37.618423,55.751244</coordinates>
            </Point>
        </Placemark>
        <Placemark>
            <name>MOS</name>
            <open>1</open>
            <Point>
                <coordinates>37.618423,55.751244</coordinates>
            </Point>
        </Placemark>
        <Placemark>
            <name>DEL</name>
            <open>1</open>
            <Point>
                <coordinates>77.216721,28.6448</coordinates>
            </Point>
        </Placemark>
        <Placemark>
            <name>DEL</name>
            <open>1</open>
            <Point>
                <coordinates>77.216721,28.6448</coordinates>
            </Point>
        </Placemark>
        <Placemark>
            <name>BUE</name>
            <open>1</open>
            <Point>
                <coordinates>-58.368731,-34.602535</coordinates>
            </Point>
        </Placemark>
        <Placemark>
            <styleUrl>#PathStyle</styleUrl>
            <LineString>
                <tessellate>1</tessellate>
                <coordinates>-58.368731,-34.602535 2.351074,48.871264 2.351074,48.871264 -0.126343,51.52797 -0.126343,51.52797 37.618423,55.751244 37.618423,55.751244 77.216721,28.6448 77.216721,28.6448 -58.368731,-34.602535</coordinates>
            </LineString>
        </Placemark>
    </Document>
</kml>
